{
"type": "FeatureCollection",
"name": "POI",
"crs": { "type": "name", "properties": { "name": "urn:ogc:def:crs:OGC:1.3:CRS84" } },
"features": [
{ "type": "Feature", "properties": { "id": 1, "name": "警务室1" }, "geometry": { "type": "Point", "coordinates": [ 115.989710461809096, 29.652004417876462 ] } },
{ "type": "Feature", "properties": { "id": 2, "name": "文体广场" }, "geometry": { "type": "Point", "coordinates": [ 115.990821867212716, 29.653169905016902 ] } },
{ "type": "Feature", "properties": { "id": 3, "name": "停车位" }, "geometry": { "type": "Point", "coordinates": [ 115.992592008341944, 29.652885139883473 ] } },
{ "type": "Feature", "properties": { "id": 4, "name": "警务室2" }, "geometry": { "type": "Point", "coordinates": [ 115.992399454822149, 29.652130655170637 ] } },
{ "type": "Feature", "properties": { "id": 5, "name": "社区篮球场" }, "geometry": { "type": "Point", "coordinates": [ 115.992757536806309, 29.65199267486431 ] } }
]
}
